City_ID,City,Lat,Lng,Max Temp,Humidity,Cloudiness,Wind Speed,Country,Date
0,port-aux-francais,-49.35,70.2167,41.34,99,100,21.41,TF,1701236552
1,kashgar,39.4547,75.9797,43.81,31,20,4.47,CN,1701236563
2,longyearbyen,78.2186,15.6401,31.84,86,40,1.14,SJ,1701236564
3,st. john's,47.5649,-52.7093,39.88,91,75,11.5,CA,1701236481
4,san jose de jachal,-30.2406,-68.7469,67.75,89,76,8.7,AR,1701236566
5,blackmans bay,-43.0167,147.3167,59.52,73,95,3.0,AU,1701236567
6,brzesko,49.9691,20.6061,26.82,91,100,1.99,PL,1701236491
7,sterling,39.0062,-77.4286,27.39,56,75,11.5,US,1701236569
8,floro,61.5996,5.0328,28.36,59,0,5.75,NO,1701236308
9,polyarnyy,69.1989,33.4478,26.55,88,91,15.21,RU,1701236571
10,port saint john's,-31.6229,29.5448,66.0,58,98,8.88,ZA,1701236572
11,grytviken,-54.2811,-36.5092,36.03,87,100,0.76,GS,1701236583
12,urucara,-2.5364,-57.76,74.8,91,28,2.51,BR,1701236583
13,setubal,38.5244,-8.8882,63.55,91,57,6.22,PT,1701236584
14,olonkinbyen,70.9221,-8.7187,35.02,77,97,5.68,SJ,1701236585
15,lihue,21.9789,-159.3672,72.64,90,20,3.44,US,1701236586
16,edinburgh of the seven seas,-37.0676,-12.3116,58.1,81,93,17.11,SH,1701236587
17,bethel,41.3712,-73.414,30.54,61,100,6.91,US,1701236361
18,kisangani,0.5167,25.2,73.76,94,40,9.22,CD,1701236598
19,adamstown,-25.066,-130.1015,72.45,88,10,9.4,PN,1701236599
20,preobrazheniye,42.9019,133.9064,18.25,56,67,9.8,RU,1701236610
21,ilulissat,69.2167,-51.1,24.82,46,75,18.41,GL,1701236612
22,holualoa,19.6228,-155.9522,75.04,85,40,11.5,US,1701236613
23,stanley,54.868,-1.6985,30.52,87,0,8.05,GB,1701236624
24,turkmenbasy,40.0222,52.9552,43.57,65,0,6.91,TM,1701236635
25,temiskaming shores,47.4938,-79.7153,3.0,87,27,4.65,CA,1701236636
26,punta arenas,-53.15,-70.9167,42.91,75,75,16.11,CL,1701236647
27,kailua-kona,19.6406,-155.9956,78.76,85,40,11.5,US,1701236560
28,san patricio,28.017,-97.5169,58.84,73,75,3.0,US,1701236649
29,margaret river,-33.95,115.0667,71.35,64,35,15.46,AU,1701236660
30,las heras,-46.5419,-68.9359,49.39,50,2,40.96,AR,1701236671
31,invercargill,-46.4,168.35,51.03,75,15,13.0,NZ,1701236672
32,kodiak,57.79,-152.4072,35.11,93,100,0.0,US,1701236609
33,kupang,-10.1667,123.5833,91.98,70,75,6.91,ID,1701236680
34,ushuaia,-54.8,-68.3,44.26,53,0,1.14,AR,1701236611
35,talnakh,69.4865,88.3972,-12.64,98,32,5.03,RU,1701236687
36,westport,41.1415,-73.3579,32.76,61,0,14.97,US,1701236167
37,happy valley-goose bay,53.3168,-60.3315,34.11,93,100,5.75,CA,1701236696
38,cannonvale,-20.2833,148.7,83.59,62,2,10.47,AU,1701236700
39,olinda,-8.0089,-34.8553,78.53,73,40,6.91,BR,1701236700
40,waitangi,-43.9535,-176.5597,55.81,74,96,1.99,NZ,1701236701
41,alice springs,-23.7,133.8833,67.55,88,75,12.66,AU,1701236702
42,pindushi,62.9152,34.58,16.41,98,99,4.56,RU,1701236703
43,petropavlovsk-kamchatsky,53.0452,158.6483,18.19,65,75,8.01,RU,1701236714
44,gunjur,13.2019,-16.7339,69.87,78,0,9.22,GM,1701236725
45,pamplona,42.8169,-1.6432,49.48,98,75,1.99,ES,1701236726
46,albany,42.6001,-73.9662,27.01,75,72,1.01,US,1701236727
47,port mathurin,-19.6833,63.4167,77.36,71,14,10.47,MU,1701236615
48,puerto natales,-51.7236,-72.4875,38.88,87,88,14.18,CL,1701236593
49,lebu,-37.6167,-73.65,48.45,84,1,10.58,CL,1701236646
50,annamalainagar,11.4,79.7333,82.56,75,95,9.89,IN,1701236741
51,bilibino,68.0546,166.4372,-28.97,100,98,2.82,RU,1701236742
52,sona,45.4388,10.8255,37.33,79,0,5.5,IT,1701236749
53,socorro,31.6546,-106.3033,54.88,43,75,6.91,US,1701236752
54,bereznik,62.8551,42.7072,15.19,99,97,3.33,RU,1701236754
55,vorgashor,67.5833,63.95,15.93,90,100,5.59,RU,1701236756
56,hithadhoo,-0.6,73.0833,82.81,75,100,9.71,MV,1701236757
57,vanimo,-2.6741,141.3028,84.87,74,87,7.09,PG,1701236758
58,wailua homesteads,22.0669,-159.378,72.03,92,20,3.44,US,1701236761
59,ravar,31.2656,56.8055,61.52,36,0,3.38,IR,1701236763
60,naze,28.3667,129.4833,68.92,53,43,3.58,JP,1701236764
61,utrik,11.2278,169.8474,81.97,77,68,19.89,MH,1701236769
62,kavaratti,10.5669,72.642,83.64,73,84,9.08,IN,1701236772
63,yellowknife,62.456,-114.3525,15.42,99,100,0.0,CA,1701236511
64,puerto ayora,-0.7393,-90.3518,75.54,91,57,8.01,EC,1701236776
65,west island,-12.1568,96.8225,84.18,61,54,17.27,CC,1701236778
66,new norfolk,-42.7826,147.0587,60.71,59,95,8.1,AU,1701236782
67,bredasdorp,-34.5322,20.0403,65.52,48,93,4.59,ZA,1701236789
68,kon tum,14.35,108.0,85.84,52,58,8.52,VN,1701236792
69,college,64.8569,-147.8028,22.98,82,75,9.22,US,1701236792
70,avarua,-21.2078,-159.775,75.25,83,100,12.66,CK,1701236793
71,pontes e lacerda,-15.2261,-59.3353,72.97,86,28,2.3,BR,1701236794
72,badger,64.8,-147.5333,22.91,87,75,9.22,US,1701236590
73,honiara,-9.4333,159.95,81.09,86,79,1.34,SB,1701236796
74,whitehorse,60.7161,-135.0538,11.17,84,0,4.61,CA,1701236686
75,hermanus,-34.4187,19.2345,65.5,53,58,9.28,ZA,1701236647
76,isafjordur,66.0755,-23.124,34.47,98,100,12.75,IS,1701236801
77,maragogi,-9.0122,-35.2225,74.93,76,12,5.03,BR,1701236736
78,constantia,44.1833,28.65,38.08,74,100,25.05,RO,1701236645
79,labuan,5.2767,115.2417,89.96,70,20,3.44,MY,1701236806
80,nogliki,51.8333,143.1667,12.99,81,100,16.53,RU,1701236808
81,susuman,62.7833,148.1667,-13.0,99,100,1.1,RU,1701236812
82,caleta de carquin,-11.0925,-77.6267,66.56,86,100,10.0,PE,1701236814
83,troitsko-pechorsk,62.7084,56.1964,17.69,92,100,4.0,RU,1701236815
84,prainha,-1.8,-53.48,74.52,90,44,3.06,BR,1701236816
85,priob'ye,62.5206,65.5964,24.03,98,96,2.91,RU,1701236818
86,afaahiti,-17.75,-149.2833,80.47,85,98,21.92,PF,1701236819
87,el soberbio,-27.2985,-54.1988,75.31,100,38,1.77,AR,1701236820
88,uturoa,-16.7333,-151.4333,79.99,80,93,21.72,PF,1701236821
89,tarakan,3.3,117.6333,85.5,84,75,4.61,ID,1701236824
90,padangsidempuan,1.3667,99.2667,81.19,88,88,3.13,ID,1701236826
91,pesqueira,-8.3578,-36.6964,63.57,97,49,4.27,BR,1701236827
92,khanty-mansiysk,61.0042,69.0019,23.11,80,0,4.47,RU,1701236716
93,hawaiian paradise park,19.5933,-154.9731,74.71,96,100,10.36,US,1701236829
94,madang,-5.2246,145.7966,85.77,66,100,7.47,PG,1701236830
95,labrador city,52.9463,-66.9114,13.91,79,100,6.91,CA,1701236742
96,kamina,-8.7386,24.9906,67.05,93,100,3.44,CD,1701236831
97,lata,40.1629,-8.3327,61.81,97,87,5.23,PT,1701236834
98,qaqortoq,60.7167,-46.0333,22.05,62,100,10.54,GL,1701236836
99,tual,-5.6667,132.75,84.15,68,93,2.8,ID,1701236837
100,menongue,-14.6585,17.691,69.28,77,100,2.51,AO,1701236838
101,idfu,24.9803,32.8747,67.17,34,100,4.56,EG,1701236840
102,pyapon,16.2833,95.6833,87.71,50,10,8.23,MM,1701236843
103,port elizabeth,-33.918,25.5701,66.31,77,20,24.16,ZA,1701236845
104,jamestown,42.097,-79.2353,21.72,93,100,16.11,US,1701236717
105,kudahuvadhoo,2.6708,72.8944,82.13,76,100,7.92,MV,1701236849
106,carnarvon,-24.8667,113.6333,75.81,55,12,17.83,AU,1701236850
107,tiksi,71.6872,128.8694,2.52,90,100,16.93,RU,1701236852
108,kendari,-3.945,122.4989,88.57,58,66,7.0,ID,1701236853
109,port alfred,-33.5906,26.891,68.18,78,68,5.99,ZA,1701236855
110,qujing,25.4833,103.7833,65.8,39,100,12.86,CN,1701236857
111,snyder,32.7179,-100.9176,44.01,70,0,6.91,US,1701236640
112,haiku-pauwela,20.9219,-156.3051,74.25,86,40,4.61,US,1701236860
113,arua,3.0201,30.9111,72.99,71,82,0.56,UG,1701236862
114,kerikeri,-35.2268,173.9474,68.92,63,54,1.99,NZ,1701236863
115,ilovlya,49.3033,43.9796,33.48,86,70,11.05,RU,1701236864
116,gaozhou,21.9392,110.8461,77.41,68,96,4.81,CN,1701236865
117,morant bay,17.8815,-76.4093,82.02,84,42,9.82,JM,1701236865
118,regina,50.4501,-104.6178,28.51,89,0,9.22,CA,1701236866
119,quarai,-30.3875,-56.4514,62.46,96,0,8.63,BR,1701236867
120,micheweni,-4.9667,39.8333,83.03,73,14,4.25,TZ,1701236868
121,saldanha,-33.0117,17.9442,62.65,61,0,17.96,ZA,1701236869
122,aasiaat,68.7098,-52.8699,17.67,69,98,19.57,GL,1701236870
123,ginir,7.1333,40.7,65.62,45,81,7.76,ET,1701236871
124,kutum,14.2,24.6667,67.1,29,0,7.14,SD,1701236872
125,kibre mengist,5.8833,38.9833,65.77,56,22,4.79,ET,1701236872
126,tharyarwady,17.65,95.8,84.94,54,9,9.31,MM,1701236874
127,ust-nera,64.5667,143.2,-6.92,100,99,1.81,RU,1701236875
128,daru,-9.0763,143.2092,85.26,68,44,9.91,PG,1701236876
129,spring creek,40.7266,-115.5859,22.89,70,64,2.55,US,1701236877
130,arraial do cabo,-22.9661,-42.0278,73.53,95,100,12.86,BR,1701236878
131,mount isa,-20.7333,139.5,98.37,32,22,16.11,AU,1701236879
132,thohoyandou,-22.9456,30.485,91.53,21,29,3.58,ZA,1701236880
133,urangan,-25.3,152.9,77.31,85,13,17.0,AU,1701236881
134,fort bragg,35.139,-79.006,36.18,52,0,4.0,US,1701236882
135,vilyuchinsk,52.9306,158.4028,19.67,74,100,2.08,RU,1701236883
136,labe,11.3182,-12.2833,65.86,41,100,1.92,GN,1701236884
137,iqaluit,63.7506,-68.5145,31.73,86,100,9.22,CA,1701236886
138,saint-joseph,-21.3667,55.6167,84.47,67,4,1.01,RE,1701236887
139,hanzhong,33.0728,107.0303,60.75,31,89,6.8,CN,1701236888
140,zag,46.9441,99.165,8.44,55,3,0.6,MN,1701236889
141,tobruk,32.0836,23.9764,56.41,53,9,16.51,LY,1701236890
142,puerto baquerizo moreno,-0.9,-89.6,75.74,79,39,12.64,EC,1701236736
143,mazagao,-0.115,-51.2894,78.85,97,79,3.4,BR,1701236893
144,arvika,59.6553,12.5852,29.01,82,100,11.97,SE,1701236894
145,papatowai,-46.5619,169.4708,52.29,60,39,12.44,NZ,1701236812
146,letterkenny,54.95,-7.7333,35.11,84,67,1.21,IE,1701236897
147,al hufuf,25.3646,49.5653,66.54,59,0,10.36,SA,1701236898
148,touros,-5.1989,-35.4608,77.63,79,96,9.98,BR,1701236899
149,paoua,7.2427,16.4406,77.7,39,100,2.01,CF,1701236900
150,remire-montjoly,4.9167,-52.2667,75.24,94,0,0.0,GF,1701236901
151,necochea,-38.5473,-58.7368,62.67,97,100,7.14,AR,1701236901
152,plouzane,48.3833,-4.6167,42.85,87,0,4.61,FR,1701236903
153,garachico,28.7781,-17.7646,60.91,72,0,5.75,ES,1701236904
154,bubaque,11.2833,-15.8333,80.96,61,19,15.19,GW,1701236905
155,ust'-barguzin,53.45,108.9833,16.99,82,100,6.31,RU,1701236906
156,katsuura,35.1333,140.3,60.3,51,9,27.51,JP,1701236907
157,guarapari,-20.6667,-40.4975,76.89,94,89,7.7,BR,1701236908
158,sibu,2.3,111.8167,88.11,70,20,4.61,MY,1701236908
159,quellon,-43.1167,-73.6167,50.0,92,100,10.54,CL,1701236910
160,banda aceh,5.5577,95.3222,81.05,82,100,6.13,ID,1701236911
161,salekhard,66.53,66.6019,14.05,95,100,14.12,RU,1701236912
162,severnoye,56.3491,78.3619,16.99,86,100,7.0,RU,1701236913
163,borogontsy,62.6683,131.1683,-18.02,100,100,0.98,RU,1701236914
164,carbonear,47.7332,-53.2148,40.33,91,100,11.72,CA,1701236915
165,namibe,-15.1961,12.1522,74.1,80,48,3.02,AO,1701236915
166,benjamin aceval,-24.9667,-57.5667,77.59,95,0,5.1,PY,1701236916
167,thompson,55.7435,-97.8558,8.76,85,100,3.44,CA,1701236917
168,dingli,35.8614,14.3822,60.96,82,20,8.05,MT,1701236918
169,weno,7.4515,151.8468,87.75,66,100,9.22,FM,1701236919
170,yatou,37.15,122.3833,35.44,62,96,17.87,CN,1701236920
171,pushkinskiye gory,57.0209,28.9103,6.04,98,81,3.36,RU,1701236921
172,quibala,-10.7337,14.98,64.76,97,100,0.78,AO,1701236922
173,hilo,19.7297,-155.09,74.93,95,100,10.36,US,1701236923
174,hailar,49.2,119.7,3.31,84,36,10.0,CN,1701236924
175,kapuskasing,49.4169,-82.4331,5.0,85,40,8.05,CA,1701236814
176,longboat key,27.4125,-82.659,53.64,50,0,4.61,US,1701236851
177,mount gambier,-37.8333,140.7667,60.78,81,100,14.56,AU,1701236927
178,acarau,-2.8856,-40.12,78.21,82,63,11.25,BR,1701236928
179,uacu cungo,-11.3634,15.1208,65.32,95,98,1.14,AO,1701236929
180,mulayjah,27.271,48.4242,71.22,45,25,13.62,SA,1701236930
181,olyokminsk,60.3736,120.4264,7.75,80,94,12.95,RU,1701236931
182,berbera,10.4396,45.0143,80.83,62,97,10.71,SO,1701236933
183,forster,-32.1667,152.5167,72.37,95,58,17.2,AU,1701236934
184,porto novo,6.4965,2.6036,76.8,91,14,3.78,BJ,1701236935
185,san miguel zapotitlan,25.9333,-109.05,65.84,90,74,6.38,MX,1701236936
186,san luis de la loma,17.2706,-100.8939,78.48,77,44,3.38,MX,1701236937
187,vozhega,60.4725,40.2213,13.01,97,80,5.21,RU,1701236938
188,tintafor,8.6267,-13.215,73.56,100,75,6.91,SL,1701236939
189,seryshevo,51.0933,128.3786,-1.08,84,20,0.78,RU,1701236940
190,nikolayevsk-on-amure,53.1406,140.73,4.87,86,97,5.37,RU,1701236941
191,rongelap,11.1635,166.8941,82.36,78,62,18.25,MH,1701236942
192,kotka,60.4664,26.9458,29.46,80,100,6.87,FI,1701236943
193,bangar,16.8936,120.4243,87.67,67,16,5.37,PH,1701236944
194,kavali,14.9167,79.9833,81.75,73,100,12.12,IN,1701236945
195,chonchi,-42.6128,-73.8092,49.21,92,100,6.06,CL,1701236946
196,dong ha,16.8163,107.1003,75.69,82,100,4.23,VN,1701236947
197,udachny,66.4167,112.4,3.45,84,100,25.23,RU,1701236948
198,itaituba,-4.2761,-55.9836,76.26,84,70,2.73,BR,1701236949
199,nar'yan-mar,67.6713,53.087,1.11,95,98,11.01,RU,1701236950
200,callao,-12.0667,-77.15,69.71,77,100,13.8,PE,1701236951
201,oyem,1.5995,11.5793,68.0,98,100,1.61,GA,1701236952
202,mizdah,31.4451,12.9801,52.68,41,100,8.86,LY,1701236953
203,puerto san jose,13.9256,-90.8244,77.76,84,97,4.12,GT,1701236954
204,hamilton,39.1834,-84.5333,20.77,79,0,5.75,US,1701236832
205,el triunfo,-1.9333,-79.9667,77.04,75,100,5.91,EC,1701236956
206,plastun,44.7561,136.2939,14.65,52,100,12.35,RU,1701236957
207,ribeira grande,38.5167,-28.7,61.77,94,100,5.01,PT,1701236958
208,port lincoln,-34.7333,135.8667,64.92,72,88,16.8,AU,1701236958
209,zouerate,22.7187,-12.4521,60.62,16,2,5.06,MR,1701236959
210,oranjemund,-28.55,16.4333,62.24,69,1,8.75,NA,1701236960
211,tavda,58.0425,65.2726,27.7,92,97,7.0,RU,1701236962
212,minas de marcona,-15.2119,-75.1103,57.31,86,57,10.74,PE,1701236963
213,fortuna,40.5982,-124.1573,50.34,87,100,0.0,US,1701236964
214,puerto santa,-8.9906,-78.6456,65.95,87,90,7.87,PE,1701236965
215,bikenibeu village,1.3673,173.1241,87.76,70,40,5.75,KI,1701236966
216,la cruz,23.9167,-106.9,69.94,59,20,7.29,MX,1701236967
217,araguaina,-7.1911,-48.2072,78.98,46,66,3.78,BR,1701236968
218,duekoue,6.7472,-7.3496,71.4,99,100,1.25,CI,1701236969
219,bodmin,50.4715,-4.7243,42.76,93,100,3.44,GB,1701236970
220,kavieng,-2.5744,150.7967,84.33,72,57,7.05,PG,1701236971
221,ceeldheer,3.8488,47.1806,83.89,63,48,15.12,SO,1701236933
222,charters towers,-20.1,146.2667,99.95,18,7,8.08,AU,1701236973
223,christchurch,-43.5333,172.6333,57.9,61,75,12.66,NZ,1701236880
224,nuuk,64.1835,-51.7216,34.41,44,75,3.44,GL,1701236976
225,saint helier,49.188,-2.1049,47.44,38,100,11.5,JE,1701236977
226,bang pa-in,14.2278,100.5759,93.0,49,36,5.64,TH,1701236978
227,dunedin,-45.8742,170.5036,52.81,72,3,5.99,NZ,1701236796
228,keflavik,64.0049,-22.5624,36.03,100,100,4.61,IS,1701236980
229,al qusayr,34.5091,36.5798,50.31,67,68,1.54,SY,1701236981
230,mar del plata,-38.0023,-57.5575,66.94,96,100,13.8,AR,1701236885
231,panj,37.2363,69.0991,62.74,31,100,11.45,TJ,1701236984
232,mokhsogollokh,61.4681,128.9203,-1.07,93,100,8.99,RU,1701236985
233,dwarka,22.2394,68.9678,77.16,47,0,15.21,IN,1701236986
234,hirara,24.8,125.2833,78.66,65,75,12.66,JP,1701236987
235,sangin,32.0728,64.8359,65.64,19,1,2.64,AF,1701236988
236,campo mourao,-24.0456,-52.3831,67.75,98,77,4.29,BR,1701236899
237,uporovo,56.3109,66.2693,32.97,77,100,8.59,RU,1701236990
238,vilyuysk,63.7553,121.6247,5.29,89,100,10.2,RU,1701236991
239,osinovo,55.8809,48.881,26.69,99,80,2.37,RU,1701236992
240,gadzhiyevo,69.2551,33.3362,28.31,85,97,17.09,RU,1701236994
241,saipan,15.1355,145.701,86.7,70,40,21.85,MP,1701236995
242,carutapera,-1.195,-46.02,78.62,84,37,7.99,BR,1701236996
243,puerto aysen,-45.4,-72.7,45.43,100,100,5.97,CL,1701236996
244,al majaridah,19.1236,41.9111,81.3,48,0,2.95,SA,1701236997
245,dogondoutchi,13.6393,4.0287,77.31,30,25,8.28,NE,1701236998
246,guerrero negro,27.9769,-114.0611,64.62,70,98,9.53,MX,1701236759
247,mao,39.8885,4.2658,54.16,100,20,8.05,ES,1701237001
248,tezu,27.9167,96.1667,80.69,28,23,3.58,IN,1701237004
249,jayapura,-2.5333,140.7,90.79,72,76,5.64,ID,1701237005
250,kidal,18.4411,1.4078,70.09,15,0,8.05,ML,1701237006
251,kapa'a,22.0752,-159.319,73.38,92,20,3.44,US,1701237007
252,laibin,23.7,109.2667,78.22,50,31,4.16,CN,1701237008
253,laguna,38.421,-121.4238,49.64,72,0,5.75,US,1701236875
254,ar rahad,12.7167,30.65,78.82,35,95,9.89,SD,1701237014
255,jolo,6.05,121.0167,84.69,75,86,0.31,PH,1701237015
256,sri madhopur,27.4667,75.6,72.19,47,50,6.6,IN,1701237019
257,rosarito,32.3333,-117.0333,57.11,66,1,3.74,MX,1701236734
258,karratha,-20.7377,116.8463,85.6,46,2,23.42,AU,1701237022
259,tangalle,6.024,80.7911,86.16,72,99,6.15,LK,1701237023
260,fernie,49.5,-115.0687,33.89,95,28,1.86,CA,1701236983
261,coquimbo,-29.9533,-71.3436,56.93,82,0,3.44,CL,1701237027
262,ulanhot,46.0833,122.0833,14.22,49,99,14.47,CN,1701237029
263,ghat,24.9647,10.1728,59.2,21,19,1.57,LY,1701237032
264,tarija,-21.5355,-64.7296,68.61,76,51,2.8,BO,1701237034
265,pisco,-13.7,-76.2167,66.25,82,0,9.22,PE,1701237037
266,dalandzadgad,43.5708,104.425,17.91,58,0,7.52,MN,1701237040
267,aykhal,66.0,111.5,4.84,93,100,14.47,RU,1701236845
268,atafu village,-8.5421,-172.5159,84.27,72,100,10.98,TK,1701237043
269,nemuro,43.3236,145.575,33.98,55,34,26.64,JP,1701236891
270,amursk,50.2261,136.8994,0.37,88,100,8.3,RU,1701237045
271,tucuma,-0.1833,-50.05,77.22,93,91,6.93,BR,1701237046
272,gudari,19.35,83.7833,87.58,41,3,1.32,IN,1701237047
273,hadibu,12.65,54.0333,80.62,71,95,16.35,YE,1701236935
274,nadym,65.5333,72.5167,21.22,96,100,10.92,RU,1701237051
275,bayanaul,50.7889,75.6956,40.75,39,99,3.4,KZ,1701237053
276,sakakah,29.9697,40.2064,53.17,48,100,8.46,SA,1701237054
277,itoman,26.1247,127.6694,77.4,58,20,13.8,JP,1701236791
278,kourou,5.1552,-52.6478,75.25,87,50,6.67,GF,1701237056
279,yerofey pavlovich,53.9667,121.9667,12.76,49,100,6.6,RU,1701237057
280,georgetown,5.4112,100.3354,89.55,66,20,10.36,MY,1701236712
281,vallenar,-28.5708,-70.7581,63.97,61,0,0.96,CL,1701237058
282,klaksvik,62.2266,-6.589,36.52,71,100,24.49,FO,1701237059
283,geraldton,-28.7667,114.6,77.41,53,75,14.97,AU,1701236996
284,les anglais,18.3054,-74.2197,76.77,82,37,2.98,HT,1701237061
285,chingola,-12.529,27.8838,65.68,91,100,4.27,ZM,1701237062
286,sayat,38.7839,63.8803,48.07,72,100,12.39,TM,1701237063
287,bodo,67.28,14.405,32.04,55,0,20.71,NO,1701237064
288,tamiahua,21.2667,-97.45,60.8,90,100,13.15,MX,1701237065
289,carbondale,37.7273,-89.2168,28.69,72,0,5.75,US,1701236536
290,wanxian,30.8039,108.3897,63.46,71,100,2.95,CN,1701237067
291,santa cruz,-17.8,-63.1667,72.86,94,75,16.11,BO,1701236838
292,cabo san lucas,22.8909,-109.9124,76.75,81,3,11.92,MX,1701237019
293,ejido,8.5514,-71.2375,63.64,84,8,7.54,VE,1701237074
294,amga,60.8953,131.9608,-7.26,96,100,3.96,RU,1701237078
295,codrington,-38.2667,141.9667,59.27,85,100,22.32,AU,1701236893
296,t'q'ibuli,42.3512,42.9987,40.12,53,89,14.65,GE,1701237082
297,kharp,66.8014,65.8081,18.36,95,100,7.56,RU,1701237083
298,dudinka,69.4058,86.1778,-17.66,100,39,1.41,RU,1701237084
299,tolanaro,-25.0319,46.9987,86.07,58,0,13.8,MG,1701236928
300,tofol,5.3248,163.0078,78.58,89,100,3.44,FM,1701237086
301,bel ombre,-4.6167,55.4167,85.84,70,40,5.75,SC,1701237088
302,yung shue wan,22.2333,114.1167,77.61,68,92,3.0,HK,1701237089
303,kulp,38.4972,41.0122,41.25,34,70,1.1,TR,1701237090
304,gidole,5.65,37.3667,62.89,52,67,6.55,ET,1701237095
305,zugdidi,42.5088,41.8709,45.14,54,98,8.95,GE,1701237097
306,nejo,9.5,35.5,67.57,60,78,1.41,ET,1701237098
307,hede,33.7681,120.2517,53.37,57,100,16.37,CN,1701237099
308,mahdia,35.5047,11.0622,58.95,59,100,8.25,TN,1701237099
309,sitka,57.0531,-135.33,35.49,80,0,0.0,US,1701237100
310,cabedelo,-6.9811,-34.8339,74.07,73,97,9.26,BR,1701237101
311,broken hill,-31.95,141.4333,80.58,31,9,18.54,AU,1701236862
312,west side highway,46.184,-122.9172,37.02,86,0,5.01,US,1701237110
313,reyes,-14.3167,-67.3833,73.06,91,97,2.15,BO,1701237112
314,ratnagiri,16.9833,73.3,82.99,67,78,9.13,IN,1701237117
315,beau vallon,-20.4189,57.6953,83.21,78,40,8.05,MU,1701237120
316,inari,68.906,27.0288,26.8,97,94,9.84,FI,1701237126
317,el matama,16.7095,33.3565,78.76,52,3,14.27,SD,1701237129
318,weligama,5.9667,80.4167,78.91,81,99,4.36,LK,1701237130
319,tura,25.5198,90.2201,78.78,50,44,3.83,IN,1701237131
320,qamdo,31.1667,97.2333,35.56,22,67,3.53,CN,1701236927
321,kinablangan,7.6947,126.5503,82.8,79,87,4.47,PH,1701237139
322,makokou,0.5738,12.8642,69.64,98,98,2.59,GA,1701237143
323,prince rupert,54.3161,-130.3201,42.49,100,100,5.75,CA,1701237144
324,chita,52.0333,113.55,17.49,32,37,6.71,RU,1701237144
325,alofi,-19.0595,-169.9187,82.29,74,21,6.91,NU,1701237151
326,enewetak,11.3474,162.3373,81.68,79,98,21.79,MH,1701237153
327,port blair,11.6667,92.75,86.04,70,40,11.5,IN,1701237157
328,sao gabriel da cachoeira,-0.1303,-67.0892,71.64,99,87,0.67,BR,1701237162
329,sampit,-2.5333,112.95,89.53,57,100,2.01,ID,1701237164
330,nouadhibou,20.931,-17.0347,64.38,63,1,8.05,MR,1701237165
331,kenai,60.5544,-151.2583,38.08,90,100,6.91,US,1701237166
332,hotan,37.0997,79.9269,47.08,18,66,5.84,CN,1701237167
333,puerto leguizamo,-0.1934,-74.7819,70.97,99,86,1.41,CO,1701237168
334,paramonga,-10.6667,-77.8333,66.45,87,100,8.25,PE,1701237169
335,siocon,7.7061,122.1353,84.63,80,50,4.32,PH,1701237173
336,aioun,16.6614,-9.6149,68.79,17,3,9.1,MR,1701237175
337,belvedere marittimo,39.6179,15.8617,56.12,77,74,13.2,IT,1701237176
338,saint-pierre,-21.3393,55.4781,84.56,65,4,6.91,RE,1701237178
339,mejit,10.2753,170.8646,81.86,74,39,18.7,MH,1701237181
340,yuzhno-kurilsk,44.0306,145.8556,33.62,55,100,32.77,RU,1701237182
341,luganville,-15.5333,167.1667,81.09,81,100,9.55,VU,1701237183
342,nova sintra,14.8667,-24.7167,70.41,74,12,13.18,CV,1701236984
343,lexington park,38.2668,-76.4538,29.88,51,0,11.5,US,1701236950
344,champerico,14.3,-91.9167,79.95,83,92,2.77,GT,1701236895
345,kruisfontein,-34.0033,24.7314,64.74,55,21,19.13,ZA,1701237187
346,glenwood springs,39.5505,-107.3248,25.34,72,31,1.99,US,1701237188
347,lazaro cardenas,17.9583,-102.2,78.28,81,100,4.12,MX,1701237192
348,aranda de duero,41.6704,-3.6892,49.96,92,95,10.87,ES,1701237194
349,lompoc,34.6391,-120.4579,55.58,75,0,6.91,US,1701236898
350,new martinsville,39.6445,-80.8576,25.92,72,55,1.01,US,1701237198
351,zakamensk,50.3741,103.2863,13.68,59,21,3.11,RU,1701237200
352,sabanozu,40.4825,33.2835,43.56,92,100,5.37,TR,1701237203
353,shalqar,47.8333,59.6,32.99,74,100,20.0,KZ,1701237205
354,tchintabaraden,15.8969,5.7985,73.85,28,33,8.79,NE,1701237208
355,kimberley,-28.7323,24.7623,71.29,35,0,10.36,ZA,1701237209
356,kristiansund,63.1115,7.732,27.25,68,0,16.11,NO,1701237211
357,bamboo flat,11.7,92.7167,86.09,70,40,11.5,IN,1701237212
358,brookings,44.3114,-96.7984,34.05,74,0,10.36,US,1701236947
359,paphos,34.7667,32.4167,53.38,66,20,9.22,CY,1701237215
360,extrema,-22.8547,-46.3183,65.32,98,100,4.43,BR,1701237216
361,oro valley,32.3909,-110.9665,59.61,54,49,5.01,US,1701237218
362,fuyu,45.1833,124.8167,9.07,76,61,9.28,CN,1701237219
363,anadyr,64.75,177.4833,18.1,92,75,4.47,RU,1701237220
364,labis,2.385,103.021,84.9,78,99,2.8,MY,1701237221
365,wanning,18.8003,110.3967,78.46,84,94,5.14,CN,1701237222
366,charles city,43.0664,-92.6724,21.74,94,0,10.36,US,1701237223
367,usogorsk,63.4106,48.6872,17.67,94,100,3.22,RU,1701237224
368,guiuan,11.0333,125.7247,82.8,83,69,16.46,PH,1701237225
369,la ronge,55.1001,-105.2842,32.25,64,75,5.75,CA,1701237227
370,morehead city,34.7229,-76.726,40.98,67,0,8.05,US,1701237221
371,khandyga,62.6667,135.6,-21.64,100,96,1.19,RU,1701237228
372,bandarbeyla,9.4942,50.8122,80.49,64,100,25.61,SO,1701237229
373,hammerfest,70.6634,23.6821,32.45,69,75,14.97,NO,1701237230
374,inhambane,-23.865,35.3833,80.58,78,20,5.99,MZ,1701237231
375,kirksville,40.1948,-92.5833,30.06,71,0,6.91,US,1701237232
376,vangaindrano,-23.35,47.6,83.89,60,8,10.87,MG,1701237233
377,ibarreta,-25.2144,-59.8585,74.93,93,0,5.57,AR,1701237234
378,salinopolis,-0.6136,-47.3561,79.63,82,14,11.27,BR,1701237235
379,ngereklmadel,7.4883,134.4856,87.89,74,75,9.22,PW,1701237236
380,la passe,45.5549,-0.8967,32.23,85,25,7.23,FR,1701237237
381,isla mujeres,21.2311,-86.731,75.16,68,96,14.81,MX,1701237238
382,nadi,-17.8,177.4167,84.2,74,40,10.36,FJ,1701237122
383,saurimo,-9.6608,20.3916,65.77,92,100,2.19,AO,1701237240
384,mhamid,29.82,-5.72,54.18,33,0,1.86,MA,1701237241
385,the pas,53.8251,-101.2541,32.02,74,100,16.11,CA,1701237243
386,east london,-33.0153,27.9116,67.14,59,75,20.71,ZA,1701237245
387,ahar,38.4774,47.0699,41.9,46,9,5.06,IR,1701236987
388,vilhena,-12.7406,-60.1458,70.41,90,77,2.89,BR,1701237247
389,ornskoldsvik,63.2909,18.7153,29.35,93,100,8.05,SE,1701237249
390,bijar,35.8668,47.6051,37.26,62,1,1.74,IR,1701237250
391,dubrovnik,42.6481,18.0922,49.64,76,40,8.05,HR,1701237251
392,tosontsengel,48.7567,98.2839,-0.65,93,91,3.27,MN,1701237253
393,sisimiut,66.9395,-53.6735,27.18,63,100,16.93,GL,1701237254
394,cockburn town,21.4612,-71.1419,79.86,76,55,10.38,TC,1701237256
395,baturaja,-4.1333,104.1667,88.83,61,90,3.15,ID,1701237257
396,newman,37.3138,-121.0208,48.54,57,4,4.7,US,1701237240
397,balnearia,-31.0088,-62.6673,72.5,81,17,8.88,AR,1701237258
398,fale old settlement,-9.3852,-171.2468,84.15,73,100,10.09,TK,1701237259
399,hasaki,35.7333,140.8333,64.29,41,0,16.6,JP,1701237260
400,helena-west helena,34.5291,-90.59,33.76,63,0,6.55,US,1701236979
401,port hueneme,34.1478,-119.1951,56.79,59,0,5.75,US,1701237262
402,pozos de gamboa,22.95,-102.5667,52.39,87,40,9.28,MX,1701237263
403,zalingei,12.9096,23.4741,72.32,27,6,3.31,SD,1701237264
404,harstad,68.799,16.5293,31.39,79,17,8.08,NO,1701237265
405,takoradi,4.8845,-1.7554,77.68,85,40,2.62,GH,1701237266
406,dunay,42.8803,132.3375,16.72,50,98,21.9,RU,1701237267
407,la gi,10.6667,107.7833,85.77,68,49,21.54,VN,1701237268
408,egilsstadir,65.2653,-14.3948,33.71,86,75,4.61,IS,1701237268
409,dalby,-27.1833,151.2667,84.04,45,51,12.24,AU,1701237269
410,zaranj,30.9667,61.8833,62.56,27,2,5.64,AF,1701237270
411,burang,30.25,81.1667,28.49,61,46,5.5,CN,1701237271
412,flin flon,54.7682,-101.865,28.62,91,90,10.67,CA,1701237272
413,southside,33.9245,-86.0225,30.2,88,0,0.0,US,1701237273
414,antsiranana,-12.2787,49.2917,86.76,58,20,11.5,MG,1701237274
415,yanqul,23.5905,56.5501,78.24,33,1,0.85,OM,1701237275
416,praia da vitoria,38.7333,-27.0667,65.75,100,100,5.48,PT,1701237276
417,gallup,35.5281,-108.7426,21.96,79,0,0.0,US,1701237277
418,yuxia,34.0615,108.6291,50.61,34,100,5.21,CN,1701237278
419,mutuali,-14.8706,37.0044,79.83,66,86,6.42,MZ,1701237279
420,mutare,-18.9707,32.6709,84.52,31,60,3.51,ZW,1701237280
421,kas,36.2018,29.6377,56.71,86,100,8.5,TR,1701237281
422,ola,59.5833,151.2833,10.49,85,100,7.45,RU,1701237282
423,ivdel',60.6911,60.4206,19.02,97,100,4.0,RU,1701237282
424,tazovsky,67.4667,78.7,-1.21,98,92,8.52,RU,1701237283
425,humberto de campos,-2.5983,-43.4611,75.6,91,39,4.45,BR,1701237285
426,arrifes,37.7667,-25.7,61.05,94,40,5.75,PT,1701237285
427,brokopondo,4.75,-55.1667,75.83,87,4,7.87,SR,1701237286
428,colon,9.3592,-79.9014,78.98,89,100,10.0,PA,1701237287
429,ust'-ilimsk,58.0006,102.6619,1.22,88,100,5.01,RU,1701237288
430,akhnur,32.8667,74.7333,74.46,27,91,3.83,IN,1701237289
431,ketchikan,55.3422,-131.6461,37.38,93,0,0.0,US,1701237290
432,kununurra,-15.7667,128.7333,103.98,29,40,9.22,AU,1701237071
433,baoding,38.8511,115.4903,37.0,16,0,0.98,CN,1701237070
434,cienfuegos,22.1461,-80.4356,71.74,88,99,5.75,CU,1701237294
435,kanel,15.4916,-13.1763,68.0,52,0,0.0,SN,1701237294
436,eureka,40.8021,-124.1637,50.61,79,98,1.01,US,1701237196
437,al bayda',32.7627,21.7551,50.41,47,39,14.25,LY,1701237296
438,tadmur,34.5608,38.2805,50.72,62,75,6.78,SY,1701237297
439,saryozek,44.3583,77.9753,58.05,26,90,3.09,KZ,1701237298
440,mbandaka,0.0487,18.2603,71.65,98,100,2.51,CD,1701237300
441,boyolangu,-8.1181,111.8935,83.52,71,86,10.92,ID,1701237302
442,pathein,16.7833,94.7333,86.2,51,20,9.78,MM,1701237303
443,columbus,39.9612,-82.9988,19.92,78,0,5.75,US,1701236873
444,igarka,67.4667,86.5833,-15.9,99,15,4.72,RU,1701237306
445,fort st. john,56.2499,-120.8529,33.69,69,40,8.05,CA,1701237308
446,al mijlad,11.0333,27.7333,79.25,30,100,20.22,SD,1701237309
447,acapulco de juarez,16.8634,-99.8901,79.12,82,21,3.15,MX,1701237310
448,qarazhal,48.0078,70.7903,47.73,45,99,14.47,KZ,1701237311
449,george town,5.4112,100.3354,89.55,66,20,10.36,MY,1701237312
450,reggane,26.7158,0.1714,57.92,22,3,4.83,DZ,1701237313
451,tazacorte,28.629,-17.9293,63.57,86,0,7.0,ES,1701237314
452,miri,4.4148,114.0089,93.34,55,40,5.75,MY,1701237315
453,esmeralda,21.8525,-78.1169,74.05,83,98,8.28,CU,1701237316
454,chinde,26.8418,88.0763,67.91,43,17,6.13,NP,1701237318
455,papao,-17.75,-149.55,82.08,84,89,24.65,PF,1701237320
456,ugoofaaru,5.6667,73.0,83.5,77,100,12.82,MV,1701237322
457,homer,59.6425,-151.5483,39.09,83,100,5.75,US,1701237323
458,lubango,-14.9172,13.4925,64.17,86,93,1.28,AO,1701237324
459,tsiombe,-25.3,45.4833,96.28,29,3,10.6,MG,1701237326
460,motueka,-41.1333,173.0167,55.02,83,94,4.97,NZ,1701237328
461,sidney,-33.8679,151.2073,68.72,86,75,17.27,AU,1701237098
462,kingston,17.997,-76.7936,81.55,78,20,5.75,JM,1701237330
463,phan thiet,10.9333,108.1,88.9,60,57,19.53,VN,1701237331
464,magdalena,14.1999,121.429,85.28,75,91,10.42,PH,1701237332
465,choibalsan,48.0667,114.5,3.88,82,13,11.92,MN,1701237334
466,kuta,-8.7233,115.1723,89.55,58,75,5.75,ID,1701237335
467,mae chai,19.346,99.814,80.64,55,16,2.89,TH,1701237336
468,ibaiti,-23.8486,-50.1878,64.15,99,98,2.42,BR,1701237111
469,uliastay,47.7417,96.8444,9.07,67,0,0.45,MN,1701237338
470,san antonio de pale,-1.4014,5.6325,80.19,80,82,4.27,GQ,1701237339
471,mount pearl,47.5166,-52.7813,39.06,92,75,11.5,CA,1701237340
472,cidade velha,14.9167,-23.6167,72.07,78,20,5.75,CV,1701237341
473,novyy urengoy,66.0833,76.6333,15.19,95,100,10.33,RU,1701237342
474,tukrah,32.5341,20.5791,59.27,54,25,15.43,LY,1701237343
475,long beach,33.767,-118.1892,61.97,69,29,5.95,US,1701236720
476,luderitz,-26.6481,15.1594,68.92,57,2,16.04,NA,1701237345
477,kaiapoi,-43.3783,172.6401,57.07,66,75,12.66,NZ,1701237144
478,fort mcmurray,56.7268,-111.381,36.99,69,100,11.5,CA,1701237348
479,pratt,37.6439,-98.7376,34.41,86,0,8.05,US,1701237344
480,bryne,58.7354,5.6477,27.57,84,0,3.44,NO,1701237350
481,shiguai,40.7058,110.2856,18.39,33,2,20.67,CN,1701237351
482,ancud,-41.8697,-73.8203,51.89,92,96,16.69,CL,1701237352
483,nishinoomote,30.7333,131.0,64.96,63,75,4.61,JP,1701237353
484,kirensk,57.7853,108.1119,2.97,87,99,5.01,RU,1701237354
485,arteche,12.2645,125.4048,82.85,83,99,10.63,PH,1701237355
486,magalia,39.8121,-121.5783,46.11,41,43,1.01,US,1701237356
487,scarborough,54.2797,-0.4044,32.92,92,99,1.99,GB,1701237272
488,kelso,46.1468,-122.9084,37.09,85,0,4.0,US,1701237358
489,spirit lake,43.4222,-95.1022,33.91,77,2,8.01,US,1701237359
490,altai,46.3722,96.2583,11.34,67,1,4.32,MN,1701237360
491,al hilaliyya,14.9398,33.234,82.0,49,15,14.72,SD,1701237361
492,kyabe,9.4515,18.9449,79.16,30,68,3.24,TD,1701237362
493,pariyapuram,10.9561,76.1916,84.49,57,100,0.76,IN,1701237364
494,meadow lakes,61.6247,-149.6011,43.68,68,100,17.27,US,1701237365
495,nizhnesortymskiy,62.4397,71.7603,26.19,88,100,7.99,RU,1701237366
496,meoqui,28.2833,-105.4833,57.04,56,86,5.37,MX,1701237367
497,aswan,24.0934,32.907,60.1,47,0,5.75,EG,1701237368
498,nuku'alofa,-21.1333,-175.2,82.74,89,20,11.5,TO,1701237369
499,copiapo,-27.3667,-70.3333,55.09,62,0,1.23,CL,1701237370
500,gargalianoi,37.0667,21.6333,59.36,84,92,12.88,GR,1701237371
501,kolonia town,6.964,158.206,77.11,94,100,3.44,FM,1701237372
502,palmer,42.1584,-72.3287,29.98,58,75,17.27,US,1701237373
503,phon,15.816,102.5998,83.86,43,96,9.22,TH,1701237374
504,iskateley,67.6803,53.1512,1.02,95,99,11.01,RU,1701237375
505,berezovyy,51.6667,135.7,6.44,64,80,2.44,RU,1701237376
506,malango,-2.9627,119.9001,78.19,86,98,2.24,ID,1701237377
507,kuusamo,65.9667,29.1833,21.24,86,100,10.36,FI,1701237379
508,kafue,-15.7691,28.1814,78.64,54,86,6.17,ZM,1701237380
509,north shore,-36.8,174.75,66.4,64,47,8.99,NZ,1701237381
510,mahina,-17.5065,-149.489,82.17,69,40,3.44,PF,1701237382
511,alpena,45.0617,-83.4327,23.25,78,0,8.05,US,1701237023
512,kalmunai,7.4167,81.8167,82.63,76,95,5.59,LK,1701237384
513,pangkalpinang,-2.1333,106.1333,85.48,71,78,6.44,ID,1701237385
514,howrah,22.5892,88.3103,80.6,65,40,0.0,IN,1701237386
515,korla,41.7597,86.1469,45.82,35,36,8.37,CN,1701237387
516,puerto lempira,15.2667,-83.7667,77.18,91,38,10.2,HN,1701237388
517,namsos,64.4662,11.4957,30.25,86,75,3.44,NO,1701237389
518,cassilandia,-19.1133,-51.7342,72.61,82,91,2.73,BR,1701237329
519,koshki,54.2091,50.4677,10.85,97,78,3.06,RU,1701237391
520,illizi,26.4833,8.4667,53.4,27,98,2.93,DZ,1701237392
521,varkaus,62.3153,27.873,20.12,97,99,4.59,FI,1701237393
522,lagoa,39.05,-27.9833,64.11,86,100,5.39,PT,1701237393
523,vila velha,-20.3297,-40.2925,76.95,89,75,7.0,BR,1701237395
524,zhezkent,50.9311,81.3615,37.51,48,93,6.85,KZ,1701237397
525,richards bay,-28.783,32.0377,73.11,76,100,22.93,ZA,1701237398
526,pompeu,-19.2244,-44.9353,69.37,85,98,2.1,BR,1701237130
527,queenstown,-31.8976,26.8753,56.34,60,98,10.16,ZA,1701237400
528,cambita garabitos,18.4533,-70.1978,70.77,95,20,3.67,DO,1701237401
529,hulan ergi,47.2042,123.6333,12.06,57,96,9.98,CN,1701237402
530,dalbandin,28.8947,64.4101,69.67,35,42,2.77,PK,1701237404
531,tshikapa,-6.4167,20.8,70.07,94,100,1.72,CD,1701237405
532,ulladulla,-35.35,150.4667,68.59,92,98,13.53,AU,1701237406
533,shevchenko,48.5,35.0,42.53,92,100,25.12,UA,1701237334
534,harlingen,26.1906,-97.6961,61.2,80,100,5.75,US,1701237222
535,leo,11.1,-2.1,76.46,48,24,1.86,BF,1701237408
536,sola,-13.8833,167.55,80.13,84,84,15.32,VU,1701237409
537,chissamba,-12.1667,17.3333,66.36,76,98,3.0,AO,1701237410
538,petrolina,-9.3986,-40.5008,80.65,54,0,8.05,BR,1701237411
539,trinity beach,-16.7888,145.6968,92.01,79,40,9.22,AU,1701237412
540,mil'kovo,55.6078,37.7956,21.6,99,83,5.82,RU,1701237413
541,phan rang-thap cham,11.5667,108.9833,86.99,63,64,15.05,VN,1701237414
542,brownfield,33.1812,-102.2744,41.95,65,70,7.65,US,1701237415
543,baza,37.4907,-2.7726,49.42,85,43,4.16,ES,1701237416
544,toliara,-23.35,43.6667,86.27,52,4,12.41,MG,1701237416
545,ternate,0.8,127.4,84.29,73,96,6.35,ID,1701237417
546,rio claro,-22.4114,-47.5614,69.4,93,100,5.64,BR,1701237418
547,nawabganj,24.5911,88.271,83.48,42,83,5.91,BD,1701237420
548,graneros,-34.0667,-70.7333,54.45,81,0,5.21,CL,1701237423
549,vuktyl,63.8567,57.3094,14.11,92,100,1.01,RU,1701237425
550,solwezi,-12.1688,26.3894,63.63,95,100,6.17,ZM,1701237425
